{"adcode":211400,"lng":120.856394,"lat":40.755572,"name":"葫芦岛市","level":"city","parent":210000,"children":[{"adcode":211402,"lng":120.85937,"lat":40.755143,"name":"连山区","level":"district","parent":211400},{"adcode":211403,"lng":120.838569,"lat":40.709991,"name":"龙港区","level":"district","parent":211400},{"adcode":211404,"lng":120.752314,"lat":41.098813,"name":"南票区","level":"district","parent":211400},{"adcode":211421,"lng":120.342112,"lat":40.328407,"name":"绥中县","level":"district","parent":211400},{"adcode":211422,"lng":119.807776,"lat":40.812871,"name":"建昌县","level":"district","parent":211400},{"adcode":211481,"lng":120.729365,"lat":40.619413,"name":"兴城市","level":"district","parent":211400}],"total":6}