{"adcode":330900,"lng":122.106863,"lat":30.016028,"name":"舟山市","level":"city","parent":330000,"children":[{"adcode":330902,"lng":122.108496,"lat":30.016423,"name":"定海区","level":"district","parent":330900},{"adcode":330903,"lng":122.301953,"lat":29.945614,"name":"普陀区","level":"district","parent":330900},{"adcode":330921,"lng":122.201132,"lat":30.242865,"name":"岱山县","level":"district","parent":330900},{"adcode":330922,"lng":122.457809,"lat":30.727166,"name":"嵊泗县","level":"district","parent":330900}],"total":4}