{"adcode":460100,"lng":110.33119,"lat":20.031971,"name":"海口市","level":"city","parent":460000,"children":[{"adcode":460105,"lng":110.282393,"lat":20.008145,"name":"秀英区","level":"district","parent":460100},{"adcode":460106,"lng":110.330373,"lat":20.031026,"name":"龙华区","level":"district","parent":460100},{"adcode":460107,"lng":110.354722,"lat":20.001051,"name":"琼山区","level":"district","parent":460100},{"adcode":460108,"lng":110.356566,"lat":20.03074,"name":"美兰区","level":"district","parent":460100}],"total":4}