{"adcode":652700,"lng":82.074778,"lat":44.903258,"name":"博尔塔拉蒙古自治州","level":"city","parent":650000,"children":[{"adcode":652701,"lng":82.072237,"lat":44.903087,"name":"博乐市","level":"district","parent":652700},{"adcode":652702,"lng":82.569389,"lat":45.16777,"name":"阿拉山口市","level":"district","parent":652700},{"adcode":652722,"lng":82.892938,"lat":44.605645,"name":"精河县","level":"district","parent":652700},{"adcode":652723,"lng":81.03099,"lat":44.973751,"name":"温泉县","level":"district","parent":652700}],"total":4}